City,Cloudiness,Country,Date,Humidity,Lat,Lng,Max Temp,Wind Speed
grindavik,75.0,IS,1589204554.0,61.0,63.84,-22.43,46.4,23.04
busselton,0.0,AU,1589204554.0,69.0,-33.65,115.33,57.99,8.46
fortuna,20.0,US,1589204554.0,30.0,40.6,-124.16,57.2,13.87
alyangula,96.0,AU,1589204555.0,83.0,-13.85,136.42,75.2,1.12
rikitea,98.0,PF,1589204555.0,74.0,-23.12,-134.97,74.1,9.15
vaini,20.0,TO,1589204555.0,83.0,-21.2,-175.2,73.4,8.05
mar del plata,0.0,AR,1589204430.0,58.0,-38.0,-57.56,61.0,17.22
ondorhaan,,,,,,,,
kaitangata,100.0,NZ,1589204555.0,80.0,-46.28,169.85,52.0,4.0
nizhnyaya salda,98.0,RU,1589204556.0,65.0,58.08,60.72,64.27,4.21
sabancuy,0.0,MX,1589204556.0,74.0,18.97,-91.18,80.6,6.33
karpogory,15.0,RU,1589204556.0,71.0,64.0,44.45,52.03,8.61
ilulissat,75.0,GL,1589204556.0,64.0,69.22,-51.1,37.4,4.7
nizhneyansk,,,,,,,,
castro,1.0,BR,1589204556.0,55.0,-24.79,-50.01,68.97,8.77
hobart,75.0,AU,1589204430.0,71.0,-42.88,147.33,55.0,3.36
havre-saint-pierre,20.0,CA,1589204557.0,82.0,50.23,-63.6,41.0,25.28
srandakan,100.0,ID,1589204557.0,88.0,-7.94,110.25,78.85,5.61
porbandar,0.0,IN,1589204557.0,81.0,21.64,69.61,83.21,14.83
salihorsk,54.0,BY,1589204557.0,62.0,52.79,27.54,72.43,13.87
estelle,1.0,US,1589204558.0,52.0,29.85,-90.11,72.0,5.82
atuona,2.0,PF,1589204558.0,78.0,-9.8,-139.03,80.35,19.46
maningrida,34.0,AU,1589204558.0,76.0,-12.07,134.27,76.96,11.83
bethel,90.0,US,1589204334.0,66.0,41.37,-73.41,54.0,11.41
biltine,0.0,TD,1589204558.0,7.0,14.53,20.92,105.96,3.29
gisborne,89.0,NZ,1589204421.0,99.0,-38.65,178.0,50.0,1.99
qaanaaq,0.0,GL,1589204558.0,81.0,77.48,-69.36,11.25,6.96
punta arenas,40.0,CL,1589204559.0,80.0,-53.15,-70.92,41.0,19.46
souillac,75.0,MU,1589204529.0,53.0,-20.52,57.52,75.2,8.05
vila franca do campo,40.0,PT,1589204559.0,63.0,37.72,-25.43,62.6,20.8
jutai,0.0,BR,1589204559.0,65.0,-5.18,-68.9,85.05,2.66
tiksi,100.0,RU,1589204559.0,98.0,71.69,128.87,28.36,12.26
jamestown,90.0,US,1589204345.0,93.0,42.1,-79.24,37.99,11.41
hilo,1.0,US,1589204324.0,68.0,19.73,-155.09,69.8,4.7
charters towers,0.0,AU,1589204560.0,61.0,-20.1,146.27,63.77,8.39
mataura,100.0,NZ,1589204560.0,88.0,-46.19,168.86,48.18,1.16
namibe,20.0,AO,1589204560.0,62.0,-15.2,12.15,86.0,11.41
norman wells,20.0,CA,1589204560.0,92.0,65.28,-126.83,32.0,2.24
la ronge,5.0,CA,1589204561.0,53.0,55.1,-105.28,26.6,3.36
hirara,9.0,JP,1589204561.0,89.0,24.8,125.28,79.66,8.66
pemba,75.0,MZ,1589204561.0,65.0,-12.97,40.52,82.4,13.87
ribeira grande,20.0,PT,1589204561.0,63.0,38.52,-28.7,64.4,18.34
barentsburg,,,,,,,,
okhotsk,82.0,RU,1589204561.0,75.0,59.38,143.3,38.28,4.74
cape town,10.0,ZA,1589204556.0,60.0,-33.93,18.42,72.0,16.11
kapaa,75.0,US,1589204562.0,78.0,22.08,-159.32,75.2,11.41
bredasdorp,0.0,ZA,1589204562.0,47.0,-34.53,20.04,75.2,8.05
brigantine,20.0,US,1589204562.0,62.0,39.41,-74.36,57.2,18.34
barrow,1.0,US,1589204562.0,86.0,71.29,-156.79,28.4,12.75
ushuaia,75.0,AR,1589204562.0,80.0,-54.8,-68.3,41.0,18.34
albany,75.0,US,1589204563.0,66.0,42.6,-73.97,48.99,3.36
vardo,75.0,NO,1589204563.0,69.0,70.37,31.11,39.2,13.87
severo-kurilsk,100.0,RU,1589204563.0,89.0,50.68,156.12,34.95,14.36
hermanus,18.0,ZA,1589204563.0,69.0,-34.42,19.23,66.0,2.93
bluff,86.0,NZ,1589204563.0,80.0,-46.6,168.33,51.51,13.2
grand river south east,,,,,,,,
lebu,44.0,CL,1589204564.0,80.0,-37.62,-73.65,53.17,5.12
nova olimpia,6.0,BR,1589204564.0,60.0,-14.8,-57.29,84.9,8.52
sao miguel do araguaia,17.0,BR,1589204564.0,65.0,-13.28,-50.16,81.09,9.31
new bern,1.0,US,1589204564.0,68.0,35.11,-77.04,68.0,17.22
port alfred,0.0,ZA,1589204564.0,85.0,-33.59,26.89,66.0,5.01
huejuquilla el alto,0.0,MX,1589204565.0,35.0,22.6,-103.87,65.66,1.34
morondava,97.0,MG,1589204565.0,67.0,-20.28,44.28,81.32,9.95
egvekinot,100.0,RU,1589204565.0,100.0,66.32,-179.17,33.12,2.84
belaya gora,100.0,RU,1589204565.0,99.0,68.53,146.42,31.73,7.38
arraial do cabo,0.0,BR,1589204565.0,50.0,-22.97,-42.03,78.8,18.34
neuquen,90.0,AR,1589204566.0,61.0,-38.95,-68.06,46.4,6.93
mutsamudu,,,,,,,,
la rioja,100.0,ES,1589204566.0,36.0,42.25,-2.5,75.2,19.46
ahar,91.0,IR,1589204566.0,60.0,38.48,47.07,54.41,11.45
kyra,0.0,RU,1589204566.0,53.0,49.58,111.98,42.64,9.17
azuaga,89.0,ES,1589204566.0,63.0,38.27,-5.68,64.99,14.0
port lincoln,65.0,AU,1589204470.0,67.0,-34.73,135.87,56.52,10.09
letka,70.0,RU,1589204567.0,72.0,59.6,49.42,58.66,6.24
grand centre,,,,,,,,
puerto ayora,82.0,EC,1589204567.0,92.0,-0.74,-90.35,77.0,8.61
taolanaro,,,,,,,,
dera din panah,,,,,,,,
atar,0.0,MR,1589204567.0,10.0,20.52,-13.05,101.08,11.07
half moon bay,1.0,US,1589204568.0,71.0,37.46,-122.43,53.6,8.05
nanortalik,100.0,GL,1589204568.0,75.0,60.14,-45.24,45.28,19.53
coihaique,40.0,CL,1589204568.0,93.0,-45.58,-72.07,41.0,2.24
ikungi,95.0,TZ,1589204568.0,71.0,-5.13,34.77,69.62,8.86
thompson,20.0,CA,1589204568.0,48.0,55.74,-97.86,19.4,10.29
hithadhoo,100.0,MV,1589204373.0,78.0,-0.6,73.08,85.5,14.65
bengkulu,7.0,ID,1589204569.0,89.0,-3.8,102.27,79.3,4.68
leningradskiy,63.0,RU,1589204569.0,96.0,69.38,178.42,32.9,8.77
sisimiut,89.0,GL,1589204569.0,51.0,66.94,-53.67,48.78,6.22
sitio novo do tocantins,40.0,BR,1589204569.0,62.0,-5.52,-47.46,87.8,10.29
saskylakh,100.0,RU,1589204569.0,97.0,71.92,114.08,24.69,10.87
tuktoyaktuk,90.0,CA,1589204570.0,92.0,69.45,-133.04,28.4,11.41
fare,7.0,PF,1589204570.0,74.0,-16.7,-151.02,82.35,6.73
margate,45.0,GB,1589204570.0,52.0,51.38,1.39,51.01,13.0
belushya guba,,,,,,,,
vaitupu,,,,,,,,
brae,74.0,GB,1589204571.0,52.0,60.4,-1.35,44.6,12.75
chokurdakh,100.0,RU,1589204571.0,98.0,70.63,147.92,31.98,8.55
hofn,90.0,IS,1589204571.0,57.0,64.25,-15.21,48.2,16.11
sorland,75.0,NO,1589204571.0,60.0,67.67,12.69,39.2,9.17
ziyang,36.0,CN,1589204571.0,73.0,29.25,117.85,66.43,2.89
valencia,40.0,ES,1589204414.0,30.0,39.33,-0.83,80.6,19.46
ulaangom,1.0,MN,1589204572.0,30.0,49.98,92.07,60.75,1.77
asfi,0.0,MA,1589204572.0,66.0,32.3,-9.24,67.98,12.57
naron,6.0,ES,1589204572.0,68.0,43.52,-8.15,64.4,12.75
nishihara,75.0,JP,1589204572.0,94.0,26.18,127.76,75.2,9.17
flin flon,20.0,CA,1589204572.0,58.0,54.77,-101.86,24.8,4.7
ciudad bolivar,61.0,VE,1589204573.0,47.0,8.12,-63.55,89.85,11.7
terre-de-bas,40.0,GP,1589204573.0,66.0,15.85,-61.64,84.2,17.22
tapaua,,,,,,,,
lagoa,100.0,PT,1589204573.0,75.0,39.05,-27.98,58.41,15.23
junagarh,2.0,IN,1589204573.0,26.0,19.87,82.93,90.82,2.64
yellowknife,20.0,CA,1589204573.0,59.0,62.46,-114.35,33.8,13.87
safaga,43.0,EG,1589204574.0,33.0,26.73,33.94,84.9,11.68
udachnyy,90.0,RU,1589204574.0,68.0,66.42,112.4,28.4,6.71
iqaluit,90.0,CA,1589204574.0,69.0,63.75,-68.51,33.8,18.34
beira,75.0,MZ,1589204574.0,57.0,-19.84,34.84,78.8,11.41
camapua,0.0,BR,1589204574.0,55.0,-19.53,-54.04,82.49,8.68
upernavik,100.0,GL,1589204574.0,84.0,72.79,-56.15,20.98,12.1
khatanga,37.0,RU,1589204575.0,97.0,71.97,102.5,27.23,4.65
nikolskoye,40.0,RU,1589204575.0,32.0,59.7,30.79,66.2,11.18
kodiak,100.0,US,1589204575.0,84.0,57.79,-152.41,42.37,4.9
santo tomas,40.0,PH,1589204575.0,70.0,14.11,121.14,87.8,5.82
houma,1.0,US,1589204575.0,72.0,29.6,-90.72,69.01,5.82
ust-kuyga,100.0,RU,1589204576.0,98.0,70.02,135.6,26.82,3.15
meulaboh,100.0,ID,1589204576.0,82.0,4.14,96.13,80.78,1.7
kedougou,32.0,SN,1589204576.0,23.0,12.56,-12.17,103.21,8.48
torbay,20.0,CA,1589204576.0,56.0,47.67,-52.73,46.0,23.04
tarko-sale,82.0,RU,1589204576.0,86.0,64.92,77.78,40.51,14.58
paamiut,100.0,GL,1589204577.0,73.0,61.99,-49.67,43.95,29.24
mayo,1.0,US,1589204344.0,76.0,38.89,-76.51,57.99,8.05
dikson,100.0,RU,1589204577.0,99.0,73.51,80.55,31.41,20.96
grand gaube,100.0,MU,1589204577.0,61.0,-20.01,57.66,72.0,3.0
mys shmidta,,,,,,,,
damghan,0.0,IR,1589204577.0,42.0,36.17,54.35,68.9,12.64
nelson bay,5.0,AU,1589204578.0,87.0,-32.72,152.15,46.99,6.93
luderitz,0.0,NA,1589204578.0,29.0,-26.65,15.16,87.8,5.82
new norfolk,100.0,AU,1589204578.0,83.0,-42.78,147.06,54.0,1.01
esperance,90.0,AU,1589204578.0,87.0,-33.87,121.9,57.2,5.82
haverfordwest,0.0,GB,1589204578.0,59.0,51.8,-4.97,55.0,24.16
los llanos de aridane,75.0,ES,1589204578.0,69.0,28.66,-17.92,75.2,6.93
bubaque,0.0,GW,1589204579.0,75.0,11.28,-15.83,78.1,10.27
mao,20.0,ES,1589204579.0,68.0,39.89,4.27,69.8,24.16
medina del campo,75.0,ES,1589204579.0,62.0,41.31,-4.91,64.0,8.05
asau,83.0,RO,1589204579.0,33.0,46.43,26.4,80.01,7.9
port keats,83.0,AU,1589204579.0,39.0,-14.25,129.55,76.75,11.27
skagastrond,,,,,,,,
carnarvon,67.0,AU,1589204580.0,75.0,-24.87,113.63,71.92,15.37
nioro,0.0,GM,1589204580.0,13.0,13.35,-15.75,105.62,4.18
hovd,1.0,MN,1589204580.0,27.0,48.01,91.64,59.81,2.64
privas,100.0,FR,1589204580.0,84.0,44.58,4.5,61.0,4.0
ternate,38.0,ID,1589204580.0,79.0,0.8,127.4,83.21,6.71
tabou,100.0,CI,1589204581.0,86.0,4.42,-7.35,80.44,6.96
tepalcatepec,2.0,MX,1589204581.0,44.0,19.18,-102.85,82.26,1.28
bayan,100.0,CN,1589204581.0,59.0,46.08,127.4,57.0,4.88
namie,0.0,JP,1589204581.0,75.0,37.48,141.0,60.01,2.84
airai,85.0,TL,1589204581.0,100.0,-8.93,125.41,58.53,3.49
constitucion,5.0,CL,1589204582.0,58.0,-35.33,-72.42,56.28,9.48
ahuimanu,40.0,US,1589204582.0,54.0,21.44,-157.84,84.2,8.05
cherskiy,73.0,RU,1589204582.0,83.0,68.75,161.3,34.93,26.75
poum,53.0,NC,1589204582.0,68.0,-20.23,164.02,75.51,9.01
rawannawi,,,,,,,,
tura,100.0,IN,1589204582.0,65.0,25.52,90.22,77.47,4.03
ordzhonikidze,100.0,KZ,1589204583.0,72.0,52.44,61.74,64.67,9.4
komsomolskiy,100.0,UZ,1589204583.0,20.0,40.43,71.72,86.0,2.24
spornoye,17.0,RU,1589204583.0,33.0,50.84,37.29,73.4,11.18
georgetown,40.0,MY,1589204307.0,94.0,5.41,100.34,80.6,10.29
ambilobe,19.0,MG,1589204583.0,69.0,-13.2,49.05,80.67,1.81
santander,20.0,ES,1589204496.0,77.0,43.46,-3.8,64.4,13.87
lompoc,90.0,US,1589204584.0,93.0,34.64,-120.46,55.99,3.2
zhanaozen,52.0,KZ,1589204584.0,42.0,43.3,52.8,63.34,17.05
kampong thum,52.0,KH,1589204584.0,69.0,12.71,104.89,86.16,3.42
kargat,0.0,RU,1589204584.0,48.0,55.2,80.28,72.14,7.72
ola,97.0,RU,1589204584.0,90.0,59.58,151.28,34.86,2.75
roma,75.0,US,1589204524.0,75.0,43.21,-75.46,48.0,6.93
noshiro,2.0,JP,1589204585.0,92.0,40.2,140.02,52.21,8.1
uusikaupunki,26.0,FI,1589204585.0,44.0,60.8,21.41,39.2,16.11
illoqqortoormiut,,,,,,,,
berdigestyakh,100.0,RU,1589204585.0,96.0,62.1,126.7,30.88,8.68
jumla,97.0,NP,1589204585.0,67.0,29.27,82.18,53.02,2.51
shelburne,90.0,CA,1589204585.0,86.0,44.08,-80.2,37.4,8.05
lata,60.0,PT,1589204586.0,80.0,40.16,-8.33,68.0,5.99
gumdag,22.0,TM,1589204586.0,41.0,39.21,54.59,71.31,19.01
avarua,96.0,CK,1589204586.0,88.0,-21.21,-159.78,77.0,11.41
chuy,83.0,UY,1589204586.0,77.0,-33.7,-53.46,67.3,6.62
kalundborg,0.0,DK,1589204586.0,42.0,55.68,11.09,48.2,10.29
isangel,94.0,VU,1589204586.0,62.0,-19.55,169.27,71.53,3.33
semirom,31.0,IR,1589204586.0,26.0,31.42,51.57,62.02,18.21
bambous virieux,75.0,MU,1589204587.0,53.0,-20.34,57.76,75.2,8.05
jiexiu,0.0,CN,1589204587.0,28.0,37.02,111.91,62.55,7.52
benguela,6.0,AO,1589204587.0,53.0,-12.58,13.41,86.5,6.49
cidreira,100.0,BR,1589204587.0,58.0,-30.18,-50.21,75.65,6.15
boa vista,75.0,BR,1589204587.0,70.0,2.82,-60.67,84.2,14.99
port elizabeth,75.0,ZA,1589204578.0,82.0,-33.92,25.57,64.4,20.8
sinazongwe,0.0,ZM,1589204588.0,55.0,-17.26,27.46,75.94,6.26
farafangana,67.0,MG,1589204588.0,71.0,-22.82,47.83,71.76,6.29
mount gambier,75.0,AU,1589204455.0,93.0,-37.83,140.77,50.0,9.17
bafoulabe,0.0,ML,1589204588.0,16.0,13.81,-10.83,107.56,5.73
te anau,94.0,NZ,1589204588.0,84.0,-45.42,167.72,42.49,2.28
east london,20.0,ZA,1589204589.0,82.0,-33.02,27.91,68.0,17.22
umm lajj,0.0,SA,1589204589.0,55.0,25.02,37.27,82.13,11.54
iquitos,75.0,PE,1589204589.0,83.0,-3.75,-73.25,82.4,3.36
sabang,100.0,ID,1589204589.0,79.0,5.89,95.32,82.96,12.12
saint george,40.0,US,1589204590.0,48.0,37.1,-113.58,68.0,12.75
bastia,30.0,FR,1589204590.0,64.0,42.67,9.33,71.6,13.87
san patricio,5.0,MX,1589204590.0,78.0,19.22,-104.7,71.6,4.97
floro,40.0,NO,1589204591.0,72.0,61.6,5.03,41.0,14.99
muli,100.0,MV,1589204591.0,76.0,2.92,73.57,84.72,9.84
san lorenzo,78.0,PY,1589204591.0,51.0,-25.33,-57.53,82.4,14.99
sao filipe,21.0,CV,1589204591.0,76.0,14.9,-24.5,74.1,11.01
vila velha,40.0,BR,1589204591.0,65.0,-20.33,-40.29,77.0,5.82
mbandaka,16.0,CD,1589204591.0,69.0,0.05,18.26,85.19,2.33
honiara,90.0,SB,1589204592.0,88.0,-9.43,159.95,80.6,3.36
ahipara,100.0,NZ,1589204592.0,83.0,-35.17,173.17,57.51,8.28
samalaeulu,,,,,,,,
tabas,47.0,IR,1589204592.0,11.0,33.6,56.92,98.6,2.24
kavaratti,92.0,IN,1589204592.0,70.0,10.57,72.64,86.2,7.65
tasiilaq,99.0,GL,1589204592.0,95.0,65.61,-37.64,30.72,12.55
belmonte,75.0,BR,1589204593.0,88.0,-15.86,-38.88,73.4,5.82
mandalgovi,9.0,MN,1589204593.0,41.0,45.76,106.27,54.97,11.97
kenai,90.0,US,1589204593.0,87.0,60.55,-151.26,44.6,12.75
port hardy,40.0,CA,1589204593.0,87.0,50.7,-127.42,46.4,3.36
geresk,,,,,,,,
prachin buri,5.0,TH,1589204593.0,70.0,14.05,101.37,85.41,0.83
saint-philippe,48.0,RE,1589204594.0,57.0,-21.36,55.77,75.2,18.34
tocopilla,4.0,CL,1589204594.0,51.0,-22.09,-70.2,68.68,4.99
savannah bight,100.0,HN,1589204594.0,79.0,16.45,-85.85,82.02,10.58
pevek,26.0,RU,1589204594.0,93.0,69.7,170.31,29.7,8.77
salta,0.0,AR,1589204522.0,63.0,-24.79,-65.41,64.4,8.05
olafsvik,100.0,IS,1589204594.0,91.0,64.89,-23.71,43.09,14.63
cayenne,75.0,GF,1589204595.0,78.0,4.93,-52.33,82.4,16.11
kaberamaido,99.0,UG,1589204595.0,82.0,1.74,33.16,77.16,3.42
inuvik,90.0,CA,1589204595.0,100.0,68.35,-133.72,30.2,6.93
burns lake,0.0,CA,1589204595.0,81.0,54.23,-125.75,35.15,2.53
tuatapere,85.0,NZ,1589204595.0,86.0,-46.13,167.68,45.0,4.72
mahajanga,20.0,MG,1589204595.0,43.0,-15.72,46.32,89.6,5.82
kaeo,100.0,NZ,1589204596.0,34.0,-35.1,173.78,61.0,4.0
tulum,40.0,MX,1589204596.0,88.0,20.22,-87.47,79.0,6.93
butaritari,1.0,KI,1589204596.0,80.0,3.07,172.79,82.74,11.72
kutum,20.0,SD,1589204596.0,9.0,14.2,24.67,95.0,6.02
jalu,1.0,LY,1589204596.0,8.0,29.03,21.55,98.64,9.04
vyyezdnoye,72.0,RU,1589204596.0,60.0,55.38,43.79,61.7,6.02
manicore,75.0,BR,1589204477.0,88.0,-5.81,-61.3,80.6,3.36
amahai,96.0,ID,1589204597.0,93.0,-3.33,128.92,82.99,5.35
samusu,,,,,,,,
talnakh,87.0,RU,1589204597.0,96.0,69.49,88.4,37.4,6.71
yulara,75.0,AU,1589204597.0,27.0,-25.24,130.99,62.6,5.82
north branch,36.0,US,1589204597.0,57.0,45.51,-92.98,41.0,3.0
namwala,5.0,ZM,1589204598.0,32.0,-15.75,26.44,81.05,7.83
moindou,75.0,NC,1589204598.0,93.0,-21.69,165.68,64.4,3.36
bossembele,,,,,,,,
hualmay,95.0,PE,1589204598.0,77.0,-11.1,-77.61,68.76,8.84
quatre cocos,75.0,MU,1589204598.0,53.0,-20.21,57.76,75.2,8.05
aklavik,75.0,CA,1589204598.0,80.0,68.22,-135.01,33.8,9.17
beringovskiy,66.0,RU,1589204599.0,98.0,63.05,179.32,30.92,3.2
meyungs,,,,,,,,
saldanha,0.0,ZA,1589204599.0,50.0,-33.01,17.94,75.2,17.22
sentyabrskiy,,,,,,,,
candelaria,0.0,PH,1589204599.0,81.0,13.93,121.42,84.99,1.99
melfi,40.0,IT,1589204599.0,37.0,41.0,15.65,82.4,17.22
araouane,0.0,ML,1589204600.0,6.0,18.9,-3.53,109.62,4.25
amderma,,,,,,,,
tsihombe,,,,,,,,
faanui,13.0,PF,1589204600.0,75.0,-16.48,-151.75,81.86,7.56
changde,99.0,CN,1589204600.0,65.0,29.05,111.68,65.14,3.56
tengzhou,88.0,CN,1589204600.0,35.0,35.08,117.15,61.68,8.86
kamaishi,0.0,JP,1589204601.0,76.0,39.27,141.88,53.82,8.72
klaksvik,89.0,FO,1589204601.0,70.0,62.23,-6.59,44.6,19.46
abbeville,50.0,FR,1589204601.0,55.0,50.1,1.83,53.01,23.96
saleaula,,,,,,,,
safford,1.0,US,1589204601.0,63.0,32.83,-109.71,60.8,2.51
mezhdurechensk,100.0,RU,1589204446.0,51.0,53.69,88.06,64.18,1.83
ipojuca,40.0,BR,1589204602.0,70.0,-8.4,-35.06,86.0,8.05
blytheville,1.0,US,1589204602.0,62.0,35.93,-89.92,53.6,8.05
araruama,0.0,BR,1589204602.0,57.0,-22.87,-42.34,78.8,12.75
juruti,1.0,BR,1589204602.0,79.0,-2.15,-56.09,83.21,3.78
blagoyevo,70.0,RU,1589204602.0,69.0,63.37,47.92,57.92,5.61
nome,1.0,US,1589204420.0,77.0,64.5,-165.41,35.6,8.05
ayios kirikos,,,,,,,,
walvis bay,0.0,NA,1589204603.0,29.0,-22.96,14.51,89.6,10.27
fairbanks,1.0,US,1589204401.0,68.0,64.84,-147.72,55.99,2.13
sambava,100.0,MG,1589204603.0,75.0,-14.27,50.17,78.42,17.13
rocha,54.0,UY,1589204603.0,64.0,-34.48,-54.33,65.62,11.7
thinadhoo,67.0,MV,1589204604.0,76.0,0.53,72.93,85.26,16.8
palencia,37.0,ES,1589204604.0,53.0,42.42,-4.5,64.99,5.01
geraldton,0.0,AU,1589204604.0,82.0,-28.77,114.6,60.8,8.05
mahebourg,75.0,MU,1589204604.0,53.0,-20.41,57.7,75.2,8.05
biak,25.0,ID,1589204604.0,80.0,-0.91,122.88,78.87,6.85
karaul,,,,,,,,
kabinda,92.0,CD,1589204604.0,59.0,-6.13,24.48,82.89,5.5
kidal,0.0,ML,1589204605.0,7.0,18.44,1.41,107.42,7.0
tome,1.0,CL,1589204605.0,93.0,-36.62,-72.95,48.2,5.82
flinders,0.0,AU,1589204605.0,75.0,-34.58,150.86,48.0,1.01
najran,0.0,SA,1589204605.0,16.0,17.49,44.13,98.6,4.7
tazovskiy,94.0,RU,1589204316.0,99.0,67.47,78.7,32.0,8.3
miracatu,0.0,BR,1589204605.0,44.0,-24.28,-47.46,80.55,5.55
naryan-mar,100.0,RU,1589204606.0,99.0,67.67,53.09,35.85,11.12
bol,0.0,TD,1589204606.0,33.0,13.46,14.71,89.22,9.6
hambantota,40.0,LK,1589204606.0,83.0,6.12,81.12,84.2,3.36
sanming,77.0,CN,1589204606.0,81.0,26.25,117.62,73.44,1.05
guerrero negro,83.0,MX,1589204606.0,81.0,27.98,-114.06,62.51,8.01
yeniseysk,54.0,RU,1589204606.0,57.0,58.45,92.17,63.84,0.2
morgan city,1.0,US,1589204607.0,72.0,29.7,-91.21,66.0,4.7
rameswaram,100.0,IN,1589204607.0,78.0,9.28,79.3,85.59,17.94
sobolevo,62.0,RU,1589204607.0,61.0,54.43,31.9,67.23,14.23
coihueco,20.0,CL,1589204607.0,100.0,-36.62,-71.83,55.0,8.05
adeje,40.0,ES,1589204607.0,64.0,28.12,-16.73,73.4,9.17
badaojiang,,,,,,,,
sergeyevka,25.0,KZ,1589204608.0,40.0,53.88,67.42,79.56,5.82
pallasovka,96.0,RU,1589204608.0,72.0,50.05,46.88,57.45,11.54
ongandjera,98.0,NA,1589204608.0,27.0,-17.88,15.07,82.06,6.51
cabra,87.0,ES,1589204608.0,68.0,37.47,-4.44,66.0,5.01
novovoronezh,17.0,RU,1589204608.0,34.0,51.31,39.22,68.0,8.95
barabash,0.0,RU,1589204608.0,76.0,43.2,131.48,48.2,4.47
santa maria do para,48.0,BR,1589204609.0,84.0,-1.35,-47.58,82.99,8.12
kathu,75.0,TH,1589204480.0,94.0,7.92,98.33,80.6,2.24
gamba,3.0,GA,1589204609.0,70.0,-2.65,10.0,83.46,8.95
springbok,0.0,ZA,1589204609.0,16.0,-29.66,17.89,81.84,5.95
san cristobal,20.0,VE,1589204609.0,61.0,7.77,-72.22,82.4,4.7
avera,1.0,US,1589204609.0,51.0,33.19,-82.53,62.6,9.17
mawlaik,86.0,MM,1589204610.0,35.0,23.63,94.42,90.23,0.45
talaya,78.0,RU,1589204610.0,94.0,61.38,152.75,24.15,1.05
yunjinghong,,,,,,,,
zanjan,40.0,IR,1589204610.0,37.0,36.67,48.48,68.0,2.24
pisco,100.0,PE,1589204604.0,82.0,-13.7,-76.22,68.0,2.24
kabare,99.0,CD,1589204610.0,80.0,-2.47,28.82,70.84,4.38
puerto madryn,0.0,AR,1589204611.0,48.0,-42.77,-65.04,55.4,19.89
coquimbo,20.0,CL,1589204611.0,76.0,-29.95,-71.34,51.8,8.05
praia da vitoria,40.0,PT,1589204611.0,63.0,38.73,-27.07,62.6,18.75
kavieng,100.0,PG,1589204611.0,75.0,-2.57,150.8,83.88,6.85
luau,72.0,AO,1589204611.0,42.0,-10.71,22.22,80.53,5.79
clyde river,90.0,CA,1589204611.0,85.0,70.47,-68.59,14.0,10.29
golega,70.0,PT,1589204612.0,62.0,39.4,-8.49,70.0,5.01
provideniya,72.0,RU,1589204612.0,93.0,64.38,-173.3,34.84,5.48
mergui,,,,,,,,
korla,100.0,CN,1589204612.0,17.0,41.76,86.15,73.92,10.0
luchegorsk,6.0,RU,1589204612.0,82.0,46.48,134.26,44.78,4.72
dingzhou,0.0,CN,1589204612.0,20.0,38.51,115.0,77.0,8.95
oranjemund,0.0,NA,1589204613.0,42.0,-28.55,16.43,71.83,12.57
srednekolymsk,81.0,RU,1589204613.0,96.0,67.45,153.68,30.85,2.93
narsaq,75.0,GL,1589204613.0,23.0,60.92,-46.05,62.6,13.87
stoyba,,,,,,,,
noumea,75.0,NC,1589204455.0,93.0,-22.28,166.46,73.0,3.36
locri,100.0,IT,1589204613.0,29.0,38.24,16.26,75.99,5.99
russell,1.0,US,1589204614.0,67.0,32.35,-85.2,60.01,10.29
sotouboua,22.0,TG,1589204614.0,51.0,8.57,0.98,90.45,3.53
kimbe,100.0,PG,1589204614.0,88.0,-5.55,150.14,77.65,5.39
saint-francois,100.0,FR,1589204614.0,81.0,46.42,3.91,53.6,11.41
bandarbeyla,0.0,SO,1589204614.0,66.0,9.49,50.81,86.54,15.68
carballo,10.0,ES,1589204614.0,70.0,43.21,-8.69,64.0,15.99
petropavlovsk-kamchatskiy,0.0,RU,1589204615.0,74.0,53.05,158.65,33.8,6.71
longyearbyen,75.0,SJ,1589204615.0,62.0,78.22,15.64,21.2,4.7
anadyr,40.0,RU,1589204615.0,80.0,64.75,177.48,33.8,17.9
gorontalo,0.0,ID,1589204615.0,85.0,0.54,123.06,77.52,2.95
muros,17.0,ES,1589204615.0,65.0,42.78,-9.06,73.0,8.99
maceio,40.0,BR,1589204615.0,83.0,-9.67,-35.74,80.6,4.7
constantine,20.0,DZ,1589204362.0,24.0,36.37,6.61,78.8,11.41
tomigusuku,75.0,JP,1589204616.0,94.0,26.18,127.67,75.2,8.05
henties bay,0.0,NA,1589204616.0,69.0,-22.12,14.28,69.01,8.01
takoradi,100.0,GH,1589204616.0,70.0,4.88,-1.76,82.56,5.84
inderborskiy,,,,,,,,
cabo san lucas,5.0,MX,1589204616.0,40.0,22.89,-109.91,72.0,18.34
zemio,100.0,CF,1589204617.0,81.0,5.03,25.14,77.85,5.01
puerto varas,75.0,CL,1589204617.0,100.0,-41.32,-72.99,46.4,2.24
conceicao do araguaia,15.0,BR,1589204617.0,62.0,-8.26,-49.26,84.2,12.75
sunbury,75.0,AU,1589204617.0,71.0,-37.58,144.73,54.0,11.41
caravelas,11.0,BR,1589204617.0,56.0,-17.71,-39.25,79.39,7.54
rio grande,99.0,BR,1589204450.0,64.0,-32.03,-52.1,77.0,3.36
vostok,37.0,RU,1589204618.0,98.0,46.49,135.88,36.73,5.91
bagdarin,100.0,RU,1589204618.0,74.0,54.43,113.6,34.86,10.18
lakhimpur,65.0,IN,1589204525.0,31.0,27.95,80.77,87.13,14.88
antsohihy,59.0,MG,1589204618.0,57.0,-14.88,47.99,83.34,6.04
porto novo,40.0,BJ,1589204618.0,74.0,6.5,2.6,86.0,8.05
tukrah,27.0,LY,1589204618.0,12.0,32.53,20.58,92.55,15.48
koszalin,100.0,PL,1589204619.0,78.0,54.19,16.17,44.01,20.2
lavrentiya,91.0,RU,1589204619.0,84.0,65.58,-171.0,36.95,2.98
galeana,29.0,MX,1589204619.0,69.0,24.83,-100.07,62.53,2.86
shimoda,0.0,JP,1589204619.0,87.0,34.67,138.95,69.01,6.11
vung tau,100.0,VN,1589204619.0,74.0,10.35,107.08,84.16,11.74
ostrovnoy,84.0,RU,1589204619.0,71.0,68.05,39.51,40.71,24.14
arman,93.0,RU,1589204620.0,79.0,59.7,150.17,37.08,4.09
toora-khem,96.0,RU,1589204620.0,37.0,52.47,96.11,58.62,3.13
broome,90.0,US,1589204620.0,70.0,42.25,-75.83,50.0,9.17
madinat sittah uktubar,0.0,EG,1589204620.0,19.0,29.82,31.05,87.8,16.11
vechta,75.0,DE,1589204620.0,37.0,52.72,8.28,53.6,11.41
bolshoye selo,0.0,RU,1589204620.0,46.0,57.72,38.93,61.41,5.88
kozhva,100.0,RU,1589204621.0,82.0,65.11,57.05,52.11,9.24
soluno-dmitriyevskoye,21.0,RU,1589204621.0,30.0,44.4,42.73,69.8,11.18
east wenatchee bench,1.0,US,1589204621.0,51.0,47.43,-120.28,57.2,4.7
tautira,20.0,PF,1589204621.0,83.0,-17.73,-149.15,78.8,4.7
college,20.0,US,1589204621.0,61.0,64.86,-147.8,55.99,5.82
antofagasta,90.0,CL,1589204621.0,67.0,-23.65,-70.4,62.6,3.36
mitsamiouli,40.0,KM,1589204622.0,70.0,-11.38,43.28,86.0,4.7
viransehir,0.0,TR,1589204622.0,28.0,37.24,39.76,74.26,9.78
toliary,,,,,,,,
chimbote,61.0,PE,1589204622.0,80.0,-9.09,-78.58,69.66,7.38
binga,17.0,ZW,1589204622.0,51.0,-17.62,27.34,76.57,6.04
victoria,100.0,HK,1589204622.0,85.0,22.29,114.16,82.99,5.99
espita,85.0,MX,1589204622.0,83.0,21.02,-88.32,77.85,7.49
valdosta,1.0,US,1589204496.0,60.0,30.83,-83.28,70.0,9.17
ucluelet,75.0,CA,1589204623.0,87.0,48.93,-125.55,55.99,11.41
lanquin,100.0,GT,1589204623.0,85.0,15.57,-89.97,73.8,2.91
batagay-alyta,100.0,RU,1589204623.0,95.0,67.8,130.41,22.57,2.08
inhambane,40.0,MZ,1589204623.0,57.0,-23.86,35.38,77.0,9.17
le port,75.0,RE,1589204624.0,60.0,-20.94,55.29,73.4,12.75
general roca,70.0,AR,1589204388.0,61.0,-39.03,-67.58,46.4,6.93
byron bay,4.0,AU,1589204624.0,76.0,-28.65,153.62,57.2,10.29
katsuura,0.0,JP,1589204624.0,90.0,35.13,140.3,69.01,4.21
nuuk,75.0,GL,1589204624.0,37.0,64.18,-51.72,53.6,12.75
atambua,14.0,ID,1589204624.0,86.0,-9.11,124.89,72.18,5.61
lynn haven,1.0,US,1589204422.0,52.0,30.25,-85.65,71.01,4.7
krasnogorskoye,100.0,RU,1589204625.0,57.0,52.3,86.2,65.01,17.05
hohhot,40.0,CN,1589204625.0,33.0,40.81,111.65,64.4,17.9
seddon,40.0,AU,1589204625.0,76.0,-37.81,144.89,54.0,10.29
ati,7.0,TD,1589204625.0,11.0,13.22,18.34,106.02,4.65
katobu,3.0,ID,1589204625.0,89.0,-4.94,122.53,76.84,4.12
viedma,0.0,AR,1589204625.0,48.0,-40.81,-63.0,58.21,14.27
hami,0.0,CN,1589204626.0,13.0,42.8,93.45,73.42,9.48
balkanabat,13.0,TM,1589204626.0,41.0,39.51,54.37,71.04,13.71
ust-barguzin,40.0,RU,1589204626.0,79.0,53.45,108.98,35.62,2.95
jizan,12.0,SA,1589204626.0,63.0,17.33,42.67,95.0,10.29
harrisonville,90.0,US,1589204337.0,62.0,38.65,-94.35,46.4,6.4
kazalinsk,,,,,,,,
lake cowichan,75.0,CA,1589204627.0,71.0,48.83,-124.05,62.01,2.24
nampula,75.0,MZ,1589204627.0,51.0,-15.12,39.27,80.6,8.05
urubicha,3.0,BO,1589204627.0,53.0,-15.38,-62.95,85.33,7.36
rock sound,100.0,BS,1589204627.0,86.0,24.9,-76.2,73.83,8.7
trairi,0.0,BR,1589204627.0,68.0,-3.28,-39.27,85.41,11.25
klyuchi,85.0,RU,1589204628.0,50.0,52.27,79.17,72.0,10.2
mrirt,,,,,,,,
saint-augustin,100.0,CA,1589204628.0,87.0,51.23,-58.65,37.62,18.12
cockburn town,89.0,TC,1589204628.0,81.0,21.46,-71.14,80.85,21.79
ranong,20.0,TH,1589204628.0,89.0,9.97,98.63,84.2,2.24
berbera,7.0,SO,1589204628.0,57.0,10.44,45.01,91.11,8.39
penugonda,27.0,IN,1589204629.0,71.0,16.67,81.73,84.09,7.56
cururupu,100.0,BR,1589204629.0,89.0,-1.83,-44.87,81.01,5.28
aflu,,,,,,,,
baykit,100.0,RU,1589204629.0,58.0,61.67,96.37,59.47,5.1
konya,40.0,TR,1589204629.0,36.0,38.17,32.5,75.2,6.93
sharan,100.0,RU,1589204629.0,70.0,54.82,54.0,58.15,7.09
ituni,,,,,,,,
porosozero,100.0,RU,1589204630.0,54.0,62.72,32.73,56.95,10.85
tanete,58.0,ID,1589204630.0,88.0,-3.94,119.78,76.19,4.32
schwabach,75.0,DE,1589204630.0,93.0,49.33,11.03,44.01,14.99
haines junction,8.0,CA,1589204630.0,60.0,60.75,-137.51,45.7,2.15
verkhnyaya inta,100.0,RU,1589204630.0,72.0,65.98,60.31,51.33,14.54
whitehorse,20.0,CA,1589204631.0,59.0,60.72,-135.05,35.6,2.24
nakatunguru,100.0,TZ,1589204631.0,63.0,-2.12,33.07,76.35,4.41
zyryanka,100.0,RU,1589204631.0,99.0,65.75,150.85,29.28,7.67
nizhneangarsk,49.0,RU,1589204631.0,88.0,55.78,109.55,32.94,0.51
poso,22.0,ID,1589204631.0,81.0,-1.4,120.75,78.78,4.25
pombia,75.0,IT,1589204631.0,93.0,45.65,8.63,59.0,2.24
mayskiy,20.0,RU,1589204632.0,49.0,47.69,40.1,69.8,24.61
calvinia,0.0,ZA,1589204632.0,17.0,-31.47,19.78,80.31,13.73
teluk nibung,100.0,ID,1589204632.0,87.0,3.0,99.82,82.31,7.29
chute-aux-outardes,90.0,CA,1589204632.0,51.0,49.12,-68.4,39.2,10.29
chernyy yar,98.0,RU,1589204632.0,63.0,48.06,46.11,63.43,10.38
bochil,40.0,MX,1589204632.0,65.0,16.98,-92.92,77.0,6.93
sao gabriel da cachoeira,40.0,BR,1589204633.0,78.0,-0.13,-67.09,82.4,2.24
aromashevo,95.0,RU,1589204633.0,45.0,56.86,68.64,75.65,1.36
fuchu,1.0,JP,1589204417.0,88.0,35.67,139.48,73.0,6.93
chyhyryn,94.0,UA,1589204633.0,55.0,49.08,32.66,73.27,10.98
congonhas,20.0,BR,1589204633.0,56.0,-20.5,-43.86,68.0,6.93
waipawa,7.0,NZ,1589204633.0,76.0,-41.41,175.52,55.4,5.82
halifax,0.0,CA,1589204581.0,37.0,44.65,-63.57,53.01,3.0
marzuq,0.0,YE,1589204634.0,15.0,14.4,46.47,90.63,7.52
ismailia,0.0,EG,1589204480.0,26.0,30.6,32.27,82.09,20.4
aksarka,100.0,RU,1589204634.0,84.0,66.56,67.8,38.8,10.74
bukan,0.0,IR,1589204634.0,32.0,36.52,46.21,62.98,19.84
ryotsu,0.0,JP,1589204634.0,82.0,38.08,138.43,57.2,4.7
shingu,0.0,JP,1589204635.0,62.0,33.73,135.98,62.02,6.2
sereflikochisar,64.0,TR,1589204635.0,32.0,38.94,33.54,70.27,4.21
timizart,0.0,DZ,1589204635.0,51.0,36.8,4.27,70.0,8.28
george town,40.0,MY,1589204617.0,94.0,5.41,100.34,80.6,10.29
eyl,0.0,SO,1589204635.0,59.0,7.98,49.82,88.47,11.48
samarai,25.0,PG,1589204635.0,81.0,-10.62,150.67,80.06,13.35
tecoanapa,95.0,MX,1589204636.0,60.0,16.52,-98.75,83.3,2.82
yumen,0.0,CN,1589204636.0,22.0,40.28,97.2,59.14,12.19
mendahara,,,,,,,,
ratnagiri,9.0,IN,1589204636.0,70.0,16.98,73.3,84.96,7.36
baijiantan,97.0,CN,1589204636.0,12.0,45.63,85.18,80.71,9.37
sitka,40.0,US,1589204636.0,71.0,57.05,-135.33,50.0,4.7
marovoay,20.0,MG,1589204637.0,43.0,-16.1,46.63,89.6,5.82
hasaki,20.0,JP,1589204637.0,100.0,35.73,140.83,64.4,6.93
labuhan,100.0,ID,1589204637.0,86.0,-6.88,112.21,80.53,6.67
vila,56.0,PT,1589204637.0,64.0,42.03,-8.16,66.99,5.01
luba,20.0,GQ,1589204637.0,84.0,3.46,8.55,86.0,8.05
kinston,1.0,US,1589204637.0,63.0,35.26,-77.58,66.0,8.05
pangnirtung,90.0,CA,1589204638.0,56.0,66.15,-65.71,44.6,26.4
shahr-e kord,0.0,IR,1589204638.0,8.0,32.33,50.86,73.4,13.87
payo,82.0,ID,1589204638.0,89.0,-3.75,103.64,76.78,2.62
khandyga,100.0,RU,1589204638.0,97.0,62.67,135.6,32.16,0.51
rolim de moura,,,,,,,,
alanya,0.0,TR,1589204638.0,69.0,36.54,32.0,75.2,8.05
belyy yar,87.0,RU,1589204639.0,23.0,53.6,91.39,75.2,2.24
marsabit,100.0,KE,1589204639.0,65.0,2.33,37.99,75.15,17.25
morro bay,99.0,US,1589204354.0,86.0,35.37,-120.85,55.0,3.62
ixtapa,5.0,MX,1589204639.0,77.0,20.7,-105.2,73.0,3.36
raduzhnyy,70.0,RU,1589204639.0,33.0,62.1,77.47,74.7,4.65
saiki,0.0,JP,1589204639.0,67.0,32.95,131.9,62.6,3.36
lorengau,100.0,PG,1589204640.0,80.0,-2.02,147.27,83.34,6.78
bargal,,,,,,,,
biloela,0.0,AU,1589204640.0,86.0,-24.42,150.5,55.31,7.78
ocean springs,1.0,US,1589204376.0,59.0,30.41,-88.83,66.99,8.05
mount isa,36.0,AU,1589204640.0,21.0,-20.73,139.5,62.6,4.7
tromso,90.0,NO,1589204640.0,69.0,69.65,18.96,35.6,11.41
vilhena,40.0,BR,1589204641.0,88.0,-12.74,-60.15,77.0,5.82
ancud,45.0,CL,1589204641.0,100.0,-41.87,-73.82,46.99,3.6
sorong,100.0,ID,1589204641.0,85.0,-0.88,131.25,80.83,7.72
khomeyn,0.0,IR,1589204641.0,23.0,33.64,50.08,69.06,21.03
grimari,,,,,,,,
folkestone,15.0,GB,1589204641.0,59.0,51.08,1.18,52.0,15.99
dvinskoy,100.0,RU,1589204641.0,95.0,62.15,45.12,47.95,3.89
kamenskoye,,,,,,,,
bowen,0.0,AU,1589204642.0,82.0,-20.02,148.23,69.01,8.05
usinsk,100.0,RU,1589204642.0,80.0,65.99,57.53,51.55,9.82
aquiraz,40.0,BR,1589204417.0,66.0,-3.9,-38.39,86.0,16.11
yerbogachen,100.0,RU,1589204642.0,74.0,61.28,108.01,38.8,3.87
pizarro,100.0,CO,1589204643.0,82.0,4.95,-77.37,81.45,5.48
nedjo,61.0,ET,1589204643.0,38.0,9.5,35.5,80.19,2.91
yabrud,0.0,SY,1589204643.0,16.0,33.97,36.66,87.8,6.93
jiayuguan,50.0,CN,1589204643.0,27.0,39.82,98.3,59.18,7.11
tilichiki,100.0,RU,1589204643.0,100.0,60.47,166.1,29.03,4.99
attawapiskat,,,,,,,,
sfantu gheorghe,51.0,RO,1589204644.0,35.0,45.87,25.78,81.0,5.01
morant bay,20.0,JM,1589204644.0,62.0,17.88,-76.41,86.0,21.92
norrtalje,71.0,SE,1589204644.0,40.0,59.76,18.7,48.0,1.01
anloga,40.0,GH,1589204644.0,79.0,5.79,0.9,86.0,8.05
liberal,90.0,US,1589204644.0,65.0,37.04,-100.92,46.4,14.99
mezen,72.0,RU,1589204644.0,68.0,65.85,44.24,55.49,8.79
uthal,79.0,PK,1589204645.0,68.0,25.81,66.62,84.43,13.85
shunyi,50.0,CN,1589204645.0,30.0,40.12,116.65,70.0,24.61
nemuro,0.0,JP,1589204645.0,92.0,43.32,145.57,44.44,1.66
maragheh,75.0,IR,1589204645.0,28.0,37.39,46.24,69.8,7.36
quebo,4.0,GW,1589204645.0,32.0,11.33,-14.93,96.44,10.42
limeira,0.0,BR,1589204645.0,39.0,-22.56,-47.4,77.0,11.99
deputatskiy,100.0,RU,1589204646.0,99.0,69.3,139.9,22.77,4.18
barawe,,,,,,,,
dolbeau,,,,,,,,
bull savanna,96.0,JM,1589204646.0,75.0,17.89,-77.59,80.31,11.03
kibala,20.0,TD,1589204646.0,37.0,9.11,18.35,96.8,1.19
roald,75.0,NO,1589204646.0,72.0,62.58,6.13,41.0,10.29
yeppoon,90.0,AU,1589204646.0,72.0,-23.13,150.73,68.0,5.82
ust-kamchatsk,,,,,,,,
mahibadhoo,100.0,MV,1589204647.0,77.0,3.78,72.97,84.49,13.94
bathsheba,40.0,BB,1589204647.0,74.0,13.22,-59.52,82.4,20.8
orangeburg,1.0,US,1589204647.0,48.0,33.49,-80.86,66.99,9.17
salinopolis,51.0,BR,1589204647.0,82.0,-0.61,-47.36,82.22,7.92
bilibino,56.0,RU,1589204647.0,93.0,68.05,166.44,24.1,8.03
giresun,62.0,TR,1589204648.0,72.0,40.5,38.5,62.6,8.05
poronaysk,100.0,RU,1589204648.0,95.0,49.22,143.12,38.41,6.78
bardsir,75.0,IR,1589204648.0,12.0,29.92,56.57,87.8,13.87
zhitikara,,,,,,,,
broken hill,100.0,AU,1589204648.0,48.0,-31.95,141.43,48.2,8.05
stavelot,86.0,BE,1589204648.0,52.0,50.39,5.93,52.0,23.04
petrovskoye,0.0,RU,1589204649.0,46.0,57.01,39.27,62.08,5.3
bandar penggaram,,,,,,,,
griffith,90.0,US,1589204649.0,75.0,41.53,-87.42,41.0,8.39
leshukonskoye,100.0,RU,1589204649.0,84.0,64.9,45.76,47.07,4.76
opuwo,99.0,NA,1589204650.0,26.0,-18.06,13.84,82.15,9.19
kongolo,95.0,CD,1589204650.0,73.0,-5.38,27.0,82.15,7.23
abeche,0.0,TD,1589204651.0,8.0,13.83,20.83,104.74,3.53
derzhavinsk,37.0,KZ,1589204651.0,34.0,51.1,66.32,81.77,5.82
warqla,,,,,,,,
breyten,0.0,ZA,1589204651.0,20.0,-26.3,29.99,70.02,4.07
obihiro,0.0,JP,1589204651.0,82.0,42.92,143.2,49.5,5.26
rantepao,59.0,ID,1589204471.0,89.0,-2.97,119.9,69.17,0.92
san borja,4.0,BO,1589204652.0,65.0,-14.82,-66.85,79.93,4.07
jacareacanga,20.0,BR,1589204624.0,83.0,-6.22,-57.75,82.4,3.36
banda aceh,100.0,ID,1589204652.0,84.0,5.56,95.32,80.65,8.19
syedove,8.0,UA,1589204652.0,100.0,47.08,38.16,64.99,20.0
knysna,40.0,ZA,1589204652.0,77.0,-34.04,23.05,64.4,6.93
bure,68.0,ET,1589204653.0,42.0,10.7,37.07,77.25,0.94
mutata,100.0,CO,1589204653.0,72.0,7.24,-76.44,84.25,2.06
borovoy,40.0,RU,1589204653.0,33.0,55.43,86.08,73.4,11.18
tessalit,0.0,ML,1589204653.0,6.0,20.2,1.01,108.77,10.74
mtimbira,87.0,TZ,1589204654.0,80.0,-8.78,36.35,77.77,0.98
pyapon,46.0,MM,1589204654.0,60.0,16.28,95.68,87.82,11.18
vilyuysk,77.0,RU,1589204654.0,97.0,63.76,121.62,29.62,6.85
ayaviri,0.0,PE,1589204654.0,41.0,-14.89,-70.59,51.58,1.72
taicheng,0.0,CN,1589204654.0,35.0,38.73,113.23,56.82,9.93
isla vista,90.0,US,1589204654.0,93.0,34.41,-119.86,55.99,5.82
ponta do sol,20.0,PT,1589204655.0,46.0,32.67,-17.1,73.4,8.05
fairlie,0.0,GB,1589204655.0,30.0,55.76,-4.86,53.6,6.93
gravdal,75.0,NO,1589204655.0,60.0,68.12,13.5,39.2,9.17
